{"type":"Topology","arcs":[],"objects":{"elevsgeojson":{"type":"GeometryCollection","geometries":[{"type":"Point","coordinates":[86.8806,27.9805],"properties":{"featurecla":"mountain","comment":"Worlds highest point","lat_y":27.980475165,"long_x":86.880625847,"region":"Asia","name_de":"Mount Everest","name_en":"Mount Everest","name_cs":"Mount Everest","name":"Mount Everest"}},{"type":"Point","coordinates":[37.3533,-3.0757],"properties":{"featurecla":"mountain","comment":"Highest point in Africa","lat_y":-3.075738214,"long_x":37.353282097,"region":"Africa","name_de":"Kilimandscharo","name_en":"Mount Kilimanjaro","name_cs":"Kilimandžáro","name":"Mount Kilimanjaro"}},{"type":"Point","coordinates":[-85.6337,-78.5294],"properties":{"featurecla":"mountain","comment":null,"lat_y":-78.529351495,"long_x":-85.633717414,"region":"Antarctica","name_de":"Vinson-Massiv","name_en":"Vinson Massif","name_cs":"Vinson Massif","name":"Vinson Massif"}},{"type":"Point","coordinates":[89.3401,42.7687],"properties":{"featurecla":"depression","comment":null,"lat_y":42.768683173,"long_x":89.340098504,"region":"Asia","name_de":"Turpan-Senke","name_en":"Turpan Depression","name_cs":"Turpanská proláklina","name":"Turpan Depression"}},{"type":"Point","coordinates":[35.4747,31.5154],"properties":{"featurecla":"depression","comment":"Worlds lowest point","lat_y":31.515387274,"long_x":35.474742058,"region":"Asia","name_de":"Totes Meer","name_en":"Dead Sea","name_cs":"Mrtvé moře","name":"Dead Sea"}},{"type":"Point","coordinates":[76.5132,35.8824],"properties":{"featurecla":"mountain","comment":null,"lat_y":35.882391669,"long_x":76.513194207,"region":"Asia","name_de":"K2","name_en":"K2","name_cs":"K2","name":"K2"}},{"type":"Point","coordinates":[49.0095,44.2576],"properties":{"featurecla":"depression","comment":"Lowest point in Europe","lat_y":44.257574774,"long_x":49.009532097,"region":"Europe","name_de":"Kaspische Senke","name_en":"Caspian Depression","name_cs":"Kaspická nížina","name":"Caspian Depression"}},{"type":"Point","coordinates":[42.4392,43.3552],"properties":{"featurecla":"mountain","comment":"Highest point in Europe","lat_y":43.355169989,"long_x":42.439219597,"region":"Europe","name_de":"Elbrus","name_en":"Mount Elbrus","name_cs":"Elbrus","name":"Mount Elbrus"}},{"type":"Point","coordinates":[-116.8282,36.2423],"properties":{"featurecla":"depression","comment":"Lowest point in N. America","lat_y":36.24225495,"long_x":-116.828236457,"region":"North America","name_de":"Tal des Todes","name_en":"Death Valley","name_cs":"Údolí smrti","name":"Death Valley"}},{"type":"Point","coordinates":[-151.0073,63.0694],"properties":{"featurecla":"mountain","comment":"Highest point in N. America","lat_y":63.069403387,"long_x":-151.007313606,"region":"North America","name_de":"Denali","name_en":"Denali","name_cs":"Denali","name":"Denali"}},{"type":"Point","coordinates":[-118.2922,36.5827],"properties":{"featurecla":"mountain","comment":null,"lat_y":36.582709052,"long_x":-118.292225715,"region":"North America","name_de":"Mount Whitney","name_en":"Mount Whitney","name_cs":"Mount Whitney","name":"Mount Whitney"}},{"type":"Point","coordinates":[137.2844,-28.4487],"properties":{"featurecla":"depression","comment":"Lowest point in Australia","lat_y":-28.448663019,"long_x":137.284434441,"region":"Oceania","name_de":"Eyresee","name_en":"Lake Eyre","name_cs":"Eyrovo jezero","name":"Lake Eyre"}},{"type":"Point","coordinates":[148.2632,-36.4559],"properties":{"featurecla":"mountain","comment":"Highest point in Australia","lat_y":-36.455865167,"long_x":148.263194207,"region":"Oceania","name_de":"Mount Kosciuszko","name_en":"Mount Kosciuszko","name_cs":"Kosciuszko","name":"Mount Kosciuszko"}},{"type":"Point","coordinates":[-70.0158,-32.6557],"properties":{"featurecla":"mountain","comment":"Highest point in S. America","lat_y":-32.655694269,"long_x":-70.015797493,"region":"South America","name_de":"Aconcagua","name_en":"Aconcagua","name_cs":"Aconcagua","name":"Aconcagua"}},{"type":"Point","coordinates":[-63.9688,-42.624],"properties":{"featurecla":"depression","comment":"Lowest point in S. America","lat_y":-42.623955988,"long_x":-63.968800422,"region":"South America","name_de":"Laguna del Carbón","name_en":"Laguna del Carbón","name_cs":"Laguna del Carbón","name":"Laguna del Carbón"}},{"type":"Point","coordinates":[42.4133,11.6718],"properties":{"featurecla":"depression","comment":"Lowest point in Africa","lat_y":11.67182038,"long_x":42.413340691,"region":"Africa","name_de":"Assalsee","name_en":"Lake Assal","name_cs":"Assalské jezero","name":"Lake Assal"}},{"type":"Point","coordinates":[83.4951,28.6965],"properties":{"featurecla":"mountain","comment":null,"lat_y":28.696478583,"long_x":83.4951278,"region":"Asia","name_de":"Dhaulagiri","name_en":"Dhaulagiri","name_cs":"Dhaulágirí","name":"Dhaulagiri"}},{"type":"Point","coordinates":[6.865,45.8337],"properties":{"featurecla":"mountain","comment":null,"lat_y":45.833685614,"long_x":6.865000847,"region":"Europe","name_de":"Mont Blanc","name_en":"Mont Blanc","name_cs":"Mont Blanc","name":"Mont Blanc"}},{"type":"Point","coordinates":[-71.3074,44.2673],"properties":{"featurecla":"mountain","comment":null,"lat_y":44.267279364,"long_x":-71.307423469,"region":"North America","name_de":"Mount Washington","name_en":"Mount Washington","name_cs":"Mount Washington","name":"Mount Washington"}},{"type":"Point","coordinates":[-122.195,41.4093],"properties":{"featurecla":"mountain","comment":null,"lat_y":41.409308173,"long_x":-122.194996711,"region":"North America","name_de":"Mount Shasta","name_en":"Mount Shasta","name_cs":"Mount Shasta","name":"Mount Shasta"}},{"type":"Point","coordinates":[-110.8018,43.7634],"properties":{"featurecla":"mountain","comment":null,"lat_y":43.763373114,"long_x":-110.801808235,"region":"North America","name_de":"Grand Teton","name_en":"Grand Teton","name_cs":"Grand Teton","name":"Grand Teton"}},{"type":"Point","coordinates":[37.2999,-0.1501],"properties":{"featurecla":"mountain","comment":null,"lat_y":-0.150079034,"long_x":37.299937371,"region":"Africa","name_de":"Mount Kenya","name_en":"Mount Kenya","name_cs":"Mount Kenya","name":"Mount Kenya"}},{"type":"Point","coordinates":[29.8721,0.3801],"properties":{"featurecla":"mountain","comment":null,"lat_y":0.380072333,"long_x":29.872080925,"region":"Africa","name_de":"Mount Stanley","name_en":"Mount Stanley","name_cs":"Mount Stanley","name":"Mount Stanley"}},{"type":"Point","coordinates":[160.6439,56.056],"properties":{"featurecla":"mountain","comment":null,"lat_y":56.055975653,"long_x":160.643931511,"region":"Asia","name_de":"Kljutschewskaja Sopka","name_en":"Klyuchevskaya Sopka","name_cs":"Ključevskaja","name":"Klyuchevskaya Sopka"}},{"type":"Point","coordinates":[72.0217,38.9324],"properties":{"featurecla":"mountain","comment":null,"lat_y":38.932379462,"long_x":72.021739129,"region":"Asia","name_de":"Pik Ismoil Somoni","name_en":"Ismoil Somoni Peak","name_cs":"Pik Ismoila Somoniho","name":"Ismoil Somoni Peak"}},{"type":"Point","coordinates":[-144.9136,69.2811],"properties":{"featurecla":"mountain","comment":null,"lat_y":69.281073309,"long_x":-144.913624641,"region":"North America","name_de":"Mount Chamberlin","name_en":"Mount Chamberlin","name_cs":"Mount Chamberlin","name":"Mount Chamberlin"}},{"type":"Point","coordinates":[137.1663,-4.0777],"properties":{"featurecla":"mountain","comment":null,"lat_y":-4.077691339,"long_x":137.166270379,"region":"Oceania","name_de":"Puncak Jaya","name_en":"Puncak Jaya","name_cs":"Puncak Jaya","name":"Puncak Jaya"}},{"type":"Point","coordinates":[-78.8175,-1.4693],"properties":{"featurecla":"mountain","comment":null,"lat_y":-1.469292902,"long_x":-78.81749427,"region":"South America","name_de":"Vulkan Chimborazo","name_en":"Chimborazo volcano","name_cs":"Sopka Chimborazo","name":"Chimborazo volcano"}},{"type":"Point","coordinates":[-71.0527,8.5529],"properties":{"featurecla":"mountain","comment":null,"lat_y":8.55286286,"long_x":-71.052723762,"region":"South America","name_de":"Pico Bolívar","name_en":"Pico Bolívar","name_cs":"Pico Bolívar","name":"Pico Bolívar"}},{"type":"Point","coordinates":[-7.9161,31.0621],"properties":{"featurecla":"mountain","comment":null,"lat_y":31.062079169,"long_x":-7.916127082,"region":"Africa","name_de":"Jbel Toubkal","name_en":"Jbel Toubkal","name_cs":"Džabal Tubkal","name":"Jbel Toubkal"}},{"type":"Point","coordinates":[29.2667,-29.4666],"properties":{"featurecla":"mountain","comment":null,"lat_y":-29.466607355,"long_x":29.266734246,"region":"Africa","name_de":"Thabana Ntlenyana","name_en":"Thabana Ntlenyana","name_cs":"Thabana Ntlenyana","name":"Thabana Ntlenyana"}},{"type":"Point","coordinates":[-11.373,21.2055],"properties":{"featurecla":"depression","comment":null,"lat_y":21.205511786,"long_x":-11.373036262,"region":"Africa","name_de":"Guelb er Richat","name_en":"Richat Structure","name_cs":"Oko Sahary","name":"Richat Structure"}},{"type":"Point","coordinates":[-106.4464,39.1251],"properties":{"featurecla":"mountain","comment":null,"lat_y":39.12506745,"long_x":-106.44640052,"region":"North America","name_de":"Mount Elbert","name_en":"Mount Elbert","name_cs":"Mount Elbert","name":"Mount Elbert"}}]}}}
